[{"inferred_address":"Coburg VIC 3058, Australia","geocode_latitude":-37.7412988,"geocode_longitude":144.9666108,"image_filename":"1973-0002-00011-00001-1.png","inferred_interview_date":"1942-06-24","archive_identifier":"UMA-ITE-1973000200011","archive_page_no":1},{"inferred_address":"13 Armstrong St, Coburg VIC 3058, Australia","geocode_latitude":-37.7347261,"geocode_longitude":144.9636573,"image_filename":"1973-0002-00011-00001-11.png","inferred_interview_date":"1942-07-01","archive_identifier":"UMA-ITE-1973000200011","archive_page_no":11},{"inferred_address":"Chandos St, Coburg VIC 3058, Australia","geocode_latitude":-37.7478298,"geocode_longitude":144.9608868,"image_filename":"1973-0002-00011-00001-111.png","inferred_interview_date":null,"archive_identifier":"UMA-ITE-1973000200011","archive_page_no":111},{"inferred_address":"82 Clarendon St, Coburg VIC 3058, Australia","geocode_latitude":-37.748843,"geocode_longitude":144.9533755,"image_filename":"1973-0002-00011-00001-115.png","inferred_interview_date":"1942-06-20","archive_identifier":"UMA-ITE-1973000200011","archive_page_no":115},{"inferred_address":"2 Clifton Grove, Coburg VIC 3058, Australia","geocode_latitude":-37.7398092,"geocode_longitude":144.9576989,"image_filename":"1973-0002-00011-00001-121.png","inferred_interview_date":"1942-06-24","archive_identifier":"UMA-ITE-1973000200011","archive_page_no":121},{"inferred_address":"41 Coburg St, Coburg VIC 3058, Australia","geocode_latitude":-37.7466407,"geocode_longitude":144.9706703,"image_filename":"1973-0002-00011-00001-127.png","inferred_interview_date":"1942-04-17","archive_identifier":"UMA-ITE-1973000200011","archive_page_no":127},{"inferred_address":"Coburg VIC 3058, Australia","geocode_latitude":-37.7412988,"geocode_longitude":144.9666108,"image_filename":"1973-0002-00011-00001-133.png","inferred_interview_date":"1942-06-22","archive_identifier":"UMA-ITE-1973000200011","archive_page_no":133},{"inferred_address":"Coburg VIC 3058, Australia","geocode_latitude":-37.7412988,"geocode_longitude":144.9666108,"image_filename":"1973-0002-00011-00001-142.png","inferred_interview_date":null,"archive_identifier":"UMA-ITE-1973000200011","archive_page_no":142},{"inferred_address":"Coburg VIC 3058, Australia","geocode_latitude":-37.7412988,"geocode_longitude":144.9666108,"image_filename":"1973-0002-00011-00001-145.png","inferred_interview_date":"1942-07-08","archive_identifier":"UMA-ITE-1973000200011","archive_page_no":145},{"inferred_address":"5 Deakin St, Coburg VIC 3058, Australia","geocode_latitude":-37.7474474,"geocode_longitude":144.9564729,"image_filename":"1973-0002-00011-00001-148.png","inferred_interview_date":"1942-07-21","archive_identifier":"UMA-ITE-1973000200011","archive_page_no":148},{"inferred_address":"26 Devon Ave, Coburg VIC 3058, Australia","geocode_latitude":-37.7513852,"geocode_longitude":144.9473103,"image_filename":"1973-0002-00011-00001-154.png","inferred_interview_date":"1942-07-18","archive_identifier":"UMA-ITE-1973000200011","archive_page_no":154},{"inferred_address":"18 Donne St, Coburg VIC 3058, Australia","geocode_latitude":-37.7519987,"geocode_longitude":144.9491169,"image_filename":"1973-0002-00011-00001-160.png","inferred_interview_date":"1942-06-26","archive_identifier":"UMA-ITE-1973000200011","archive_page_no":160},{"inferred_address":"18 East St, Coburg VIC 3058, Australia","geocode_latitude":-37.7551581,"geocode_longitude":144.9744567,"image_filename":"1973-0002-00011-00001-169.png","inferred_interview_date":"1942-04-22","archive_identifier":"UMA-ITE-1973000200011","archive_page_no":169},{"inferred_address":"9 Francis St, Coburg VIC 3058, Australia","geocode_latitude":-37.7372934,"geocode_longitude":144.9515258,"image_filename":"1973-0002-00011-00001-184.png","inferred_interview_date":"1942-06-25","archive_identifier":"UMA-ITE-1973000200011","archive_page_no":184},{"inferred_address":"128 Gaffney St, Coburg North VIC 3058, Australia","geocode_latitude":-37.7328611,"geocode_longitude":144.9555033,"image_filename":"1973-0002-00011-00001-193.png","inferred_interview_date":null,"archive_identifier":"UMA-ITE-1973000200011","archive_page_no":193},{"inferred_address":"11 Gaffney St, Coburg VIC 3058, Australia","geocode_latitude":-37.7343561,"geocode_longitude":144.9668196,"image_filename":"1973-0002-00011-00001-196.png","inferred_interview_date":"1942-08-04","archive_identifier":"UMA-ITE-1973000200011","archive_page_no":196},{"inferred_address":"Victoria, Australia","geocode_latitude":-36.9847807,"geocode_longitude":143.3906074,"image_filename":"1973-0002-00011-00001-199.png","inferred_interview_date":"1942-06-16","archive_identifier":"UMA-ITE-1973000200011","archive_page_no":199},{"inferred_address":"Coburg VIC 3058, Australia","geocode_latitude":-37.7412988,"geocode_longitude":144.9666108,"image_filename":"1973-0002-00011-00001-202.png","inferred_interview_date":null,"archive_identifier":"UMA-ITE-1973000200011","archive_page_no":202},{"inferred_address":"13 Gladstone St, Coburg VIC 3058, Australia","geocode_latitude":-37.7437383,"geocode_longitude":144.9762209,"image_filename":"1973-0002-00011-00001-205.png","inferred_interview_date":null,"archive_identifier":"UMA-ITE-1973000200011","archive_page_no":205},{"inferred_address":"Coburg VIC 3058, Australia","geocode_latitude":-37.7412988,"geocode_longitude":144.9666108,"image_filename":"1973-0002-00011-00001-220.png","inferred_interview_date":"1942-07-01","archive_identifier":"UMA-ITE-1973000200011","archive_page_no":220},{"inferred_address":"61 Glenora Ave, Coburg VIC 3058, Australia","geocode_latitude":-37.7470668,"geocode_longitude":144.9749946,"image_filename":"1973-0002-00011-00001-223.png","inferred_interview_date":"1942-06-09","archive_identifier":"UMA-ITE-1973000200011","archive_page_no":223},{"inferred_address":"116 Gordon St, Coburg VIC 3058, Australia","geocode_latitude":-37.745074,"geocode_longitude":144.949375,"image_filename":"1973-0002-00011-00001-229.png","inferred_interview_date":"1942-06-26","archive_identifier":"UMA-ITE-1973000200011","archive_page_no":229},{"inferred_address":"207 Gordon St, Coburg VIC 3058, Australia","geocode_latitude":-37.7403314,"geocode_longitude":144.9495952,"image_filename":"1973-0002-00011-00001-241.png","inferred_interview_date":"1942-06-26","archive_identifier":"UMA-ITE-1973000200011","archive_page_no":241},{"inferred_address":"Victoria, Australia","geocode_latitude":-36.9847807,"geocode_longitude":143.3906074,"image_filename":"1973-0002-00011-00001-243.png","inferred_interview_date":null,"archive_identifier":"UMA-ITE-1973000200011","archive_page_no":243},{"inferred_address":"79 Harding St, Coburg VIC 3058, Australia","geocode_latitude":-37.7455913,"geocode_longitude":144.9738758,"image_filename":"1973-0002-00011-00001-248.png","inferred_interview_date":null,"archive_identifier":"UMA-ITE-1973000200011","archive_page_no":248},{"inferred_address":"18 Harding St, Coburg VIC 3058, Australia","geocode_latitude":-37.7453849,"geocode_longitude":144.9678306,"image_filename":"1973-0002-00011-00001-251.png","inferred_interview_date":"1942-07-09","archive_identifier":"UMA-ITE-1973000200011","archive_page_no":251},{"inferred_address":"15 Hardwick St, Coburg VIC 3058, Australia","geocode_latitude":-37.7491434,"geocode_longitude":144.9690569,"image_filename":"1973-0002-00011-00001-257.png","inferred_interview_date":"1942-07-09","archive_identifier":"UMA-ITE-1973000200011","archive_page_no":257},{"inferred_address":"17 Barrow St, Coburg VIC 3058, Australia","geocode_latitude":-37.7546112,"geocode_longitude":144.9703691,"image_filename":"1973-0002-00011-00001-26.png","inferred_interview_date":null,"archive_identifier":"UMA-ITE-1973000200011","archive_page_no":26},{"inferred_address":"Victoria, Australia","geocode_latitude":-36.9847807,"geocode_longitude":143.3906074,"image_filename":"1973-0002-00011-00001-262.png","inferred_interview_date":"1942-01-06","archive_identifier":"UMA-ITE-1973000200011","archive_page_no":262},{"inferred_address":"25 Hatton Grove, Coburg VIC 3058, Australia","geocode_latitude":-37.7472187,"geocode_longitude":144.9679597,"image_filename":"1973-0002-00011-00001-265.png","inferred_interview_date":"1942-07-03","archive_identifier":"UMA-ITE-1973000200011","archive_page_no":265},{"inferred_address":"Coburg VIC 3058, Australia","geocode_latitude":-37.7412988,"geocode_longitude":144.9666108,"image_filename":"1973-0002-00011-00001-278.png","inferred_interview_date":"1942-07-02","archive_identifier":"UMA-ITE-1973000200011","archive_page_no":278},{"inferred_address":"2 Jessie St, Coburg VIC 3058, Australia","geocode_latitude":-37.7538021,"geocode_longitude":144.9607749,"image_filename":"1973-0002-00011-00001-287.png","inferred_interview_date":"1942-06-26","archive_identifier":"UMA-ITE-1973000200011","archive_page_no":287},{"inferred_address":"5 Kendall St, Coburg VIC 3058, Australia","geocode_latitude":-37.7437138,"geocode_longitude":144.9597854,"image_filename":"1973-0002-00011-00001-296.png","inferred_interview_date":"1942-06-24","archive_identifier":"UMA-ITE-1973000200011","archive_page_no":296},{"inferred_address":"4 King St, Coburg VIC 3058, Australia","geocode_latitude":-37.7449418,"geocode_longitude":144.9593312,"image_filename":"1973-0002-00011-00001-299.png","inferred_interview_date":"1942-06-29","archive_identifier":"UMA-ITE-1973000200011","archive_page_no":299},{"inferred_address":"Victoria, Australia","geocode_latitude":-36.9847807,"geocode_longitude":143.3906074,"image_filename":"1973-0002-00011-00001-3.png","inferred_interview_date":null,"archive_identifier":"UMA-ITE-1973000200011","archive_page_no":3},{"inferred_address":"50 Linda St, Coburg VIC 3058, Australia","geocode_latitude":-37.750437,"geocode_longitude":144.957733,"image_filename":"1973-0002-00011-00001-305.png","inferred_interview_date":"1942-06-30","archive_identifier":"UMA-ITE-1973000200011","archive_page_no":305},{"inferred_address":"43 Linda St, Coburg VIC 3058, Australia","geocode_latitude":-37.7508658,"geocode_longitude":144.959011,"image_filename":"1973-0002-00011-00001-307.png","inferred_interview_date":"1942-06-26","archive_identifier":"UMA-ITE-1973000200011","archive_page_no":307},{"inferred_address":"Coburg VIC 3058, Australia","geocode_latitude":-37.7412988,"geocode_longitude":144.9666108,"image_filename":"1973-0002-00011-00001-326.png","inferred_interview_date":"1942-06-24","archive_identifier":"UMA-ITE-1973000200011","archive_page_no":326},{"inferred_address":"McKay St, Coburg VIC 3058, Australia","geocode_latitude":-37.7400177,"geocode_longitude":144.9642905,"image_filename":"1973-0002-00011-00001-329.png","inferred_interview_date":"0142-07-02","archive_identifier":"UMA-ITE-1973000200011","archive_page_no":329},{"inferred_address":"39 May St, Coburg VIC 3058, Australia","geocode_latitude":-37.7345516,"geocode_longitude":144.9607749,"image_filename":"1973-0002-00011-00001-350.png","inferred_interview_date":null,"archive_identifier":"UMA-ITE-1973000200011","archive_page_no":350},{"inferred_address":"13 Mayfield St, Coburg VIC 3058, Australia","geocode_latitude":-37.7434287,"geocode_longitude":144.9607749,"image_filename":"1973-0002-00011-00001-353.png","inferred_interview_date":null,"archive_identifier":"UMA-ITE-1973000200011","archive_page_no":353},{"inferred_address":"Coburg VIC 3058, Australia","geocode_latitude":-37.7412988,"geocode_longitude":144.9666108,"image_filename":"1973-0002-00011-00001-359.png","inferred_interview_date":"1942-08-04","archive_identifier":"UMA-ITE-1973000200011","archive_page_no":359},{"inferred_address":"10 Belgrave St, Coburg VIC 3058, Australia","geocode_latitude":-37.7432274,"geocode_longitude":144.9747149,"image_filename":"1973-0002-00011-00001-36.png","inferred_interview_date":"1942-07-21","archive_identifier":"UMA-ITE-1973000200011","archive_page_no":36},{"inferred_address":"11 Moore St, Coburg VIC 3058, Australia","geocode_latitude":-37.7536114,"geocode_longitude":144.9660236,"image_filename":"1973-0002-00011-00001-362.png","inferred_interview_date":"1942-06-22","archive_identifier":"UMA-ITE-1973000200011","archive_page_no":362},{"inferred_address":"Moore St, Coburg VIC 3058, Australia","geocode_latitude":-37.754434,"geocode_longitude":144.9712593,"image_filename":"1973-0002-00011-00001-365.png","inferred_interview_date":"1942-06-21","archive_identifier":"UMA-ITE-1973000200011","archive_page_no":365},{"inferred_address":"50 Moore St, Coburg VIC 3058, Australia","geocode_latitude":-37.7544873,"geocode_longitude":144.9694656,"image_filename":"1973-0002-00011-00001-368.png","inferred_interview_date":null,"archive_identifier":"UMA-ITE-1973000200011","archive_page_no":368},{"inferred_address":"181 Moreland Rd, Coburg VIC 3058, Australia","geocode_latitude":-37.755277,"geocode_longitude":144.9651201,"image_filename":"1973-0002-00011-00001-374.png","inferred_interview_date":"1942-06-30","archive_identifier":"UMA-ITE-1973000200011","archive_page_no":374},{"inferred_address":"181 Moreland Rd, Coburg VIC 3058, Australia","geocode_latitude":-37.755277,"geocode_longitude":144.9651201,"image_filename":"1973-0002-00011-00001-376.png","inferred_interview_date":"1942-06-30","archive_identifier":"UMA-ITE-1973000200011","archive_page_no":376},{"inferred_address":"110 Munro St, Coburg VIC 3058, Australia","geocode_latitude":-37.7437948,"geocode_longitude":144.9562578,"image_filename":"1973-0002-00011-00001-378.png","inferred_interview_date":"1942-06-29","archive_identifier":"UMA-ITE-1973000200011","archive_page_no":378},{"inferred_address":"55 Munro St, Coburg VIC 3058, Australia","geocode_latitude":-37.7447071,"geocode_longitude":144.9612051,"image_filename":"1973-0002-00011-00001-384.png","inferred_interview_date":"1942-06-24","archive_identifier":"UMA-ITE-1973000200011","archive_page_no":384},{"inferred_address":"119 Bell St, Coburg VIC 3058, Australia","geocode_latitude":-37.7413241,"geocode_longitude":144.9647476,"image_filename":"1973-0002-00011-00001-387.png","inferred_interview_date":"1942-07-09","archive_identifier":"UMA-ITE-1973000200011","archive_page_no":387},{"inferred_address":"30 Bell St, Coburg VIC 3058, Australia","geocode_latitude":-37.7420652,"geocode_longitude":144.9757046,"image_filename":"1973-0002-00011-00001-39.png","inferred_interview_date":"1942-07-01","archive_identifier":"UMA-ITE-1973000200011","archive_page_no":39},{"inferred_address":"Victoria, Australia","geocode_latitude":-36.9847807,"geocode_longitude":143.3906074,"image_filename":"1973-0002-00011-00001-392.png","inferred_interview_date":null,"archive_identifier":"UMA-ITE-1973000200011","archive_page_no":392},{"inferred_address":"Coburg VIC 3058, Australia","geocode_latitude":-37.7412988,"geocode_longitude":144.9666108,"image_filename":"1973-0002-00011-00001-393.png","inferred_interview_date":"0142-06-25","archive_identifier":"UMA-ITE-1973000200011","archive_page_no":393},{"inferred_address":"10 Alice St, Coburg VIC 3058, Australia","geocode_latitude":-37.7433563,"geocode_longitude":144.9573332,"image_filename":"1973-0002-00011-00001-4.png","inferred_interview_date":"1942-07-01","archive_identifier":"UMA-ITE-1973000200011","archive_page_no":4},{"inferred_address":"6 Nelson St, California Gully VIC 3556, Australia","geocode_latitude":-36.7300117,"geocode_longitude":144.2598816,"image_filename":"1973-0002-00011-00001-402.png","inferred_interview_date":"1942-06-24","archive_identifier":"UMA-ITE-1973000200011","archive_page_no":402},{"inferred_address":"54 Nicholson St, Coburg VIC 3058, Australia","geocode_latitude":-37.7524617,"geocode_longitude":144.9767373,"image_filename":"1973-0002-00011-00001-405.png","inferred_interview_date":"1942-06-29","archive_identifier":"UMA-ITE-1973000200011","archive_page_no":405},{"inferred_address":"114 Nicholson St, Coburg VIC 3058, Australia","geocode_latitude":-37.748392,"geocode_longitude":144.9773397,"image_filename":"1973-0002-00011-00001-408.png","inferred_interview_date":"1942-06-29","archive_identifier":"UMA-ITE-1973000200011","archive_page_no":408},{"inferred_address":"Victoria, Australia","geocode_latitude":-36.9847807,"geocode_longitude":143.3906074,"image_filename":"1973-0002-00011-00001-410.png","inferred_interview_date":null,"archive_identifier":"UMA-ITE-1973000200011","archive_page_no":410},{"inferred_address":"65 Blair St, Coburg VIC 3058, Australia","geocode_latitude":-37.7551004,"geocode_longitude":144.9714878,"image_filename":"1973-0002-00011-00001-415.png","inferred_interview_date":null,"archive_identifier":"UMA-ITE-1973000200011","archive_page_no":415},{"inferred_address":"145 Nicholson St, Coburg VIC 3058, Australia","geocode_latitude":-37.7467884,"geocode_longitude":144.9769739,"image_filename":"1973-0002-00011-00001-418.png","inferred_interview_date":"1942-04-17","archive_identifier":"UMA-ITE-1973000200011","archive_page_no":418},{"inferred_address":"29 Bell St, Coburg VIC 3058, Australia","geocode_latitude":-37.7425402,"geocode_longitude":144.9754894,"image_filename":"1973-0002-00011-00001-42.png","inferred_interview_date":"1942-06-24","archive_identifier":"UMA-ITE-1973000200011","archive_page_no":42},{"inferred_address":"Victoria, Australia","geocode_latitude":-36.9847807,"geocode_longitude":143.3906074,"image_filename":"1973-0002-00011-00001-423.png","inferred_interview_date":null,"archive_identifier":"UMA-ITE-1973000200011","archive_page_no":423},{"inferred_address":"Coburg VIC 3058, Australia","geocode_latitude":-37.7412988,"geocode_longitude":144.9666108,"image_filename":"1973-0002-00011-00001-427.png","inferred_interview_date":"1942-06-22","archive_identifier":"UMA-ITE-1973000200011","archive_page_no":427},{"inferred_address":"Victoria, Australia","geocode_latitude":-36.9847807,"geocode_longitude":143.3906074,"image_filename":"1973-0002-00011-00001-429.png","inferred_interview_date":null,"archive_identifier":"UMA-ITE-1973000200011","archive_page_no":429},{"inferred_address":"35 o\/310 St Kilda St, Brighton VIC 3186, Australia","geocode_latitude":-37.9049983,"geocode_longitude":144.9884787,"image_filename":"1973-0002-00011-00001-433.png","inferred_interview_date":"1942-03-21","archive_identifier":"UMA-ITE-1973000200011","archive_page_no":433},{"inferred_address":"Coburg VIC 3058, Australia","geocode_latitude":-37.7412988,"geocode_longitude":144.9666108,"image_filename":"1973-0002-00011-00001-436.png","inferred_interview_date":"1942-06-12","archive_identifier":"UMA-ITE-1973000200011","archive_page_no":436},{"inferred_address":"Coburg VIC 3058, Australia","geocode_latitude":-37.7412988,"geocode_longitude":144.9666108,"image_filename":"1973-0002-00011-00001-454.png","inferred_interview_date":null,"archive_identifier":"UMA-ITE-1973000200011","archive_page_no":454},{"inferred_address":"61 Queen St, Coburg VIC 3058, Australia","geocode_latitude":-37.7491062,"geocode_longitude":144.9500633,"image_filename":"1973-0002-00011-00001-463.png","inferred_interview_date":"1942-06-29","archive_identifier":"UMA-ITE-1973000200011","archive_page_no":463},{"inferred_address":"31 Railway Pl, Coburg VIC 3058, Australia","geocode_latitude":-37.7458628,"geocode_longitude":144.9632379,"image_filename":"1973-0002-00011-00001-466.png","inferred_interview_date":"1942-07-08","archive_identifier":"UMA-ITE-1973000200011","archive_page_no":466},{"inferred_address":"27 Rennie St, Thornbury VIC 3071, Australia","geocode_latitude":-37.7533837,"geocode_longitude":144.9914115,"image_filename":"1973-0002-00011-00001-469.png","inferred_interview_date":"1942-01-06","archive_identifier":"UMA-ITE-1973000200011","archive_page_no":469},{"inferred_address":"94 Rennie St, Coburg VIC 3058, Australia","geocode_latitude":-37.7515273,"geocode_longitude":144.9741986,"image_filename":"1973-0002-00011-00001-478.png","inferred_interview_date":null,"archive_identifier":"UMA-ITE-1973000200011","archive_page_no":478},{"inferred_address":"184 Bell St, Coburg VIC 3058, Australia","geocode_latitude":-37.74051,"geocode_longitude":144.9606243,"image_filename":"1973-0002-00011-00001-48.png","inferred_interview_date":"1942-06-24","archive_identifier":"UMA-ITE-1973000200011","archive_page_no":48},{"inferred_address":"22 Reynard St, Coburg VIC 3058, Australia","geocode_latitude":-37.748359,"geocode_longitude":144.9636816,"image_filename":"1973-0002-00011-00001-481.png","inferred_interview_date":"1942-07-01","archive_identifier":"UMA-ITE-1973000200011","archive_page_no":481},{"inferred_address":"82 Reynard St, Coburg VIC 3058, Australia","geocode_latitude":-37.7481,"geocode_longitude":144.961213,"image_filename":"1973-0002-00011-00001-484.png","inferred_interview_date":"1942-07-02","archive_identifier":"UMA-ITE-1973000200011","archive_page_no":484},{"inferred_address":"Coburg VIC 3058, Australia","geocode_latitude":-37.7412988,"geocode_longitude":144.9666108,"image_filename":"1973-0002-00011-00001-499.png","inferred_interview_date":"1942-07-01","archive_identifier":"UMA-ITE-1973000200011","archive_page_no":499},{"inferred_address":"39 Richards St, Coburg VIC 3058, Australia","geocode_latitude":-37.7446357,"geocode_longitude":144.9715114,"image_filename":"1973-0002-00011-00001-504.png","inferred_interview_date":"1942-07-01","archive_identifier":"UMA-ITE-1973000200011","archive_page_no":504},{"inferred_address":"9 Rodda St, Coburg VIC 3058, Australia","geocode_latitude":-37.7425494,"geocode_longitude":144.9702401,"image_filename":"1973-0002-00011-00001-507.png","inferred_interview_date":"1942-07-01","archive_identifier":"UMA-ITE-1973000200011","archive_page_no":507},{"inferred_address":"244 Bell St, Coburg VIC 3058, Australia","geocode_latitude":-37.7400981,"geocode_longitude":144.9563438,"image_filename":"1973-0002-00011-00001-51.png","inferred_interview_date":null,"archive_identifier":"UMA-ITE-1973000200011","archive_page_no":51},{"inferred_address":"Victoria, Australia","geocode_latitude":-36.9847807,"geocode_longitude":143.3906074,"image_filename":"1973-0002-00011-00001-56.png","inferred_interview_date":null,"archive_identifier":"UMA-ITE-1973000200011","archive_page_no":56},{"inferred_address":"19 Bell St, Coburg VIC 3058, Australia","geocode_latitude":-37.7426094,"geocode_longitude":144.9762854,"image_filename":"1973-0002-00011-00001-57.png","inferred_interview_date":"1942-07-21","archive_identifier":"UMA-ITE-1973000200011","archive_page_no":57},{"inferred_address":"Coburg VIC 3058, Australia","geocode_latitude":-37.7412988,"geocode_longitude":144.9666108,"image_filename":"1973-0002-00011-00001-60.png","inferred_interview_date":null,"archive_identifier":"UMA-ITE-1973000200011","archive_page_no":60},{"inferred_address":"Berry St, Coburg VIC 3058, Australia","geocode_latitude":-37.746297,"geocode_longitude":144.9588982,"image_filename":"1973-0002-00011-00001-63.png","inferred_interview_date":"1942-07-02","archive_identifier":"UMA-ITE-1973000200011","archive_page_no":63},{"inferred_address":"Bruce St, Coburg VIC 3058, Australia","geocode_latitude":-37.7431339,"geocode_longitude":144.9483147,"image_filename":"1973-0002-00011-00001-81.png","inferred_interview_date":"1942-06-26","archive_identifier":"UMA-ITE-1973000200011","archive_page_no":81},{"inferred_address":"16 Budds St, Coburg VIC 3058, Australia","geocode_latitude":-37.7442151,"geocode_longitude":144.9706273,"image_filename":"1973-0002-00011-00001-87.png","inferred_interview_date":null,"archive_identifier":"UMA-ITE-1973000200011","archive_page_no":87},{"inferred_address":"Victoria, Australia","geocode_latitude":-36.9847807,"geocode_longitude":143.3906074,"image_filename":"1973-0002-00011-00001-92.png","inferred_interview_date":null,"archive_identifier":"UMA-ITE-1973000200011","archive_page_no":92},{"inferred_address":"47 Cameron St, Coburg VIC 3058, Australia","geocode_latitude":-37.7498425,"geocode_longitude":144.9628829,"image_filename":"1973-0002-00011-00001-96.png","inferred_interview_date":null,"archive_identifier":"UMA-ITE-1973000200011","archive_page_no":96},{"inferred_address":"65 Campbell St, Coburg VIC 3058, Australia","geocode_latitude":-37.7534864,"geocode_longitude":144.9696377,"image_filename":"1973-0002-00011-00001-99.png","inferred_interview_date":"1942-06-22","archive_identifier":"UMA-ITE-1973000200011","archive_page_no":99},{"inferred_address":"80 Rose St, Coburg VIC 3058, Australia","geocode_latitude":-37.7415603,"geocode_longitude":144.9477405,"image_filename":"1973-0002-00012-00001-10.png","inferred_interview_date":"1942-07-08","archive_identifier":"UMA-ITE-1973000200012","archive_page_no":10},{"inferred_address":"67 Sydney Rd, Coburg VIC 3058, Australia","geocode_latitude":-37.753586,"geocode_longitude":144.964252,"image_filename":"1973-0002-00012-00001-104.png","inferred_interview_date":"1942-06-24","archive_identifier":"UMA-ITE-1973000200012","archive_page_no":104},{"inferred_address":"Meadows Rd, Rokewood VIC 3330, Australia","geocode_latitude":-37.9367117,"geocode_longitude":143.7056009,"image_filename":"1973-0002-00012-00001-107.png","inferred_interview_date":null,"archive_identifier":"UMA-ITE-1973000200012","archive_page_no":107},{"inferred_address":"625 Sydney Rd, Coburg VIC 3058, Australia","geocode_latitude":-37.7374362,"geocode_longitude":144.9665966,"image_filename":"1973-0002-00012-00001-113.png","inferred_interview_date":"1942-07-02","archive_identifier":"UMA-ITE-1973000200012","archive_page_no":113},{"inferred_address":"19 The Avenue, Coburg VIC 3058, Australia","geocode_latitude":-37.7519681,"geocode_longitude":144.9638725,"image_filename":"1973-0002-00012-00001-116.png","inferred_interview_date":null,"archive_identifier":"UMA-ITE-1973000200012","archive_page_no":116},{"inferred_address":"16 The Avenue, Coburg VIC 3058, Australia","geocode_latitude":-37.7524429,"geocode_longitude":144.9638725,"image_filename":"1973-0002-00012-00001-122.png","inferred_interview_date":"1942-06-24","archive_identifier":"UMA-ITE-1973000200012","archive_page_no":122},{"inferred_address":"134 The Avenue, Coburg VIC 3058, Australia","geocode_latitude":-37.7534632,"geocode_longitude":144.9746288,"image_filename":"1973-0002-00012-00001-125.png","inferred_interview_date":"1942-06-25","archive_identifier":"UMA-ITE-1973000200012","archive_page_no":125},{"inferred_address":"23 The Grove, Coburg VIC 3058, Australia","geocode_latitude":-37.7514575,"geocode_longitude":144.9685558,"image_filename":"1973-0002-00012-00001-128.png","inferred_interview_date":"1942-07-01","archive_identifier":"UMA-ITE-1973000200012","archive_page_no":128},{"inferred_address":"39 Rose St, Coburg VIC 3058, Australia","geocode_latitude":-37.7440222,"geocode_longitude":144.9467081,"image_filename":"1973-0002-00012-00001-13.png","inferred_interview_date":null,"archive_identifier":"UMA-ITE-1973000200012","archive_page_no":13},{"inferred_address":"87 The Grove, Coburg VIC 3058, Australia","geocode_latitude":-37.7524286,"geocode_longitude":144.9772321,"image_filename":"1973-0002-00012-00001-131.png","inferred_interview_date":"1942-06-24","archive_identifier":"UMA-ITE-1973000200012","archive_page_no":131},{"inferred_address":"225 Elizabeth St, Melbourne VIC 3000, Australia","geocode_latitude":-37.813132,"geocode_longitude":144.9624673,"image_filename":"1973-0002-00012-00001-134.png","inferred_interview_date":"1942-07-11","archive_identifier":"UMA-ITE-1973000200012","archive_page_no":134},{"inferred_address":"40 Victoria St, Coburg VIC 3058, Australia","geocode_latitude":-37.7423474,"geocode_longitude":144.9608179,"image_filename":"1973-0002-00012-00001-137.png","inferred_interview_date":"1942-07-01","archive_identifier":"UMA-ITE-1973000200012","archive_page_no":137},{"inferred_address":"61 Victoria St, Coburg VIC 3058, Australia","geocode_latitude":-37.7424722,"geocode_longitude":144.9578495,"image_filename":"1973-0002-00012-00001-143.png","inferred_interview_date":null,"archive_identifier":"UMA-ITE-1973000200012","archive_page_no":143},{"inferred_address":"41 Vincent St, Coburg VIC 3058, Australia","geocode_latitude":-37.7407921,"geocode_longitude":144.9563438,"image_filename":"1973-0002-00012-00001-149.png","inferred_interview_date":"1942-07-01","archive_identifier":"UMA-ITE-1973000200012","archive_page_no":149},{"inferred_address":"39 Walsh St, Coburg VIC 3058, Australia","geocode_latitude":-37.7479125,"geocode_longitude":144.9688202,"image_filename":"1973-0002-00012-00001-152.png","inferred_interview_date":null,"archive_identifier":"UMA-ITE-1973000200012","archive_page_no":152},{"inferred_address":"40 Walsh St, Coburg VIC 3058, Australia","geocode_latitude":-37.7484383,"geocode_longitude":144.9697238,"image_filename":"1973-0002-00012-00001-155.png","inferred_interview_date":"1942-07-01","archive_identifier":"UMA-ITE-1973000200012","archive_page_no":155},{"inferred_address":"4 Wattle Grove, Coburg VIC 3058, Australia","geocode_latitude":-37.7511144,"geocode_longitude":144.9573763,"image_filename":"1973-0002-00012-00001-159.png","inferred_interview_date":"1942-06-26","archive_identifier":"UMA-ITE-1973000200012","archive_page_no":159},{"inferred_address":"Ross St, Coburg VIC 3058, Australia","geocode_latitude":-37.737305,"geocode_longitude":144.9656727,"image_filename":"1973-0002-00012-00001-16.png","inferred_interview_date":"1942-06-24","archive_identifier":"UMA-ITE-1973000200012","archive_page_no":16},{"inferred_address":"46 Wellington Rd, Clayton VIC 3168, Australia","geocode_latitude":-37.9160847,"geocode_longitude":145.1351699,"image_filename":"1973-0002-00012-00001-165.png","inferred_interview_date":"1942-06-24","archive_identifier":"UMA-ITE-1973000200012","archive_page_no":165},{"inferred_address":"Victoria, Australia","geocode_latitude":-36.9847807,"geocode_longitude":143.3906074,"image_filename":"1973-0002-00012-00001-171.png","inferred_interview_date":"1942-07-18","archive_identifier":"UMA-ITE-1973000200012","archive_page_no":171},{"inferred_address":"8 Woolacott St, Coburg VIC 3058, Australia","geocode_latitude":-37.7490825,"geocode_longitude":144.9640876,"image_filename":"1973-0002-00012-00001-174.png","inferred_interview_date":"1942-06-29","archive_identifier":"UMA-ITE-1973000200012","archive_page_no":174},{"inferred_address":"19 Anzac Ave, Coburg North VIC 3058, Australia","geocode_latitude":-37.7222661,"geocode_longitude":144.9655934,"image_filename":"1973-0002-00012-00001-180.png","inferred_interview_date":"1942-07-23","archive_identifier":"UMA-ITE-1973000200012","archive_page_no":180},{"inferred_address":"520 Bell St, Pascoe Vale South VIC 3044, Australia","geocode_latitude":-37.7381638,"geocode_longitude":144.9389229,"image_filename":"1973-0002-00012-00001-183.png","inferred_interview_date":"1942-09-10","archive_identifier":"UMA-ITE-1973000200012","archive_page_no":183},{"inferred_address":"Coburg VIC 3058, Australia","geocode_latitude":-37.7412988,"geocode_longitude":144.9666108,"image_filename":"1973-0002-00012-00001-186.png","inferred_interview_date":null,"archive_identifier":"UMA-ITE-1973000200012","archive_page_no":186},{"inferred_address":"Elizabeth St, Coburg VIC 3058, Australia","geocode_latitude":-37.7378229,"geocode_longitude":144.9820324,"image_filename":"1973-0002-00012-00001-189.png","inferred_interview_date":"1942-07-28","archive_identifier":"UMA-ITE-1973000200012","archive_page_no":189},{"inferred_address":"14 Russell St, Melbourne VIC 3004, Australia","geocode_latitude":-37.8170693,"geocode_longitude":144.9700948,"image_filename":"1973-0002-00012-00001-19.png","inferred_interview_date":"1942-07-03","archive_identifier":"UMA-ITE-1973000200012","archive_page_no":19},{"inferred_address":"52 Galeka St, Coburg North VIC 3058, Australia","geocode_latitude":-37.7190317,"geocode_longitude":144.9578925,"image_filename":"1973-0002-00012-00001-192.png","inferred_interview_date":"1942-08-22","archive_identifier":"UMA-ITE-1973000200012","archive_page_no":192},{"inferred_address":"4 Glyndon Ave, Coburg North VIC 3058, Australia","geocode_latitude":-37.7232771,"geocode_longitude":144.9593122,"image_filename":"1973-0002-00012-00001-195.png","inferred_interview_date":null,"archive_identifier":"UMA-ITE-1973000200012","archive_page_no":195},{"inferred_address":"18 Lincoln St, Brunswick East VIC 3057, Australia","geocode_latitude":-37.7578747,"geocode_longitude":144.9779421,"image_filename":"1973-0002-00012-00001-198.png","inferred_interview_date":"1942-07-22","archive_identifier":"UMA-ITE-1973000200012","archive_page_no":198},{"inferred_address":"Coburg VIC 3058, Australia","geocode_latitude":-37.7412988,"geocode_longitude":144.9666108,"image_filename":"1973-0002-00012-00001-201.png","inferred_interview_date":"1942-07-22","archive_identifier":"UMA-ITE-1973000200012","archive_page_no":201},{"inferred_address":"40 Orvieto St, Coburg North VIC 3058, Australia","geocode_latitude":-37.7203764,"geocode_longitude":144.9577634,"image_filename":"1973-0002-00012-00001-209.png","inferred_interview_date":"1942-07-22","archive_identifier":"UMA-ITE-1973000200012","archive_page_no":209},{"inferred_address":"4 Roosevelt St, Coburg North VIC 3058, Australia","geocode_latitude":-37.7323136,"geocode_longitude":144.9547736,"image_filename":"1973-0002-00012-00001-212.png","inferred_interview_date":"1942-08-21","archive_identifier":"UMA-ITE-1973000200012","archive_page_no":212},{"inferred_address":"32 Sharps Rd, Tullamarine VIC 3043, Australia","geocode_latitude":-37.7082129,"geocode_longitude":144.8810729,"image_filename":"1973-0002-00012-00001-215.png","inferred_interview_date":"1942-07-22","archive_identifier":"UMA-ITE-1973000200012","archive_page_no":215},{"inferred_address":"11 Salisbury St, Coburg VIC 3058, Australia","geocode_latitude":-37.7432203,"geocode_longitude":144.9741555,"image_filename":"1973-0002-00012-00001-22.png","inferred_interview_date":"1942-04-09","archive_identifier":"UMA-ITE-1973000200012","archive_page_no":22},{"inferred_address":"Victoria, Australia","geocode_latitude":-36.9847807,"geocode_longitude":143.3906074,"image_filename":"1973-0002-00012-00001-221.png","inferred_interview_date":"1942-08-04","archive_identifier":"UMA-ITE-1973000200012","archive_page_no":221},{"inferred_address":"Victoria, Australia","geocode_latitude":-36.9847807,"geocode_longitude":143.3906074,"image_filename":"1973-0002-00012-00001-226.png","inferred_interview_date":"1942-08-21","archive_identifier":"UMA-ITE-1973000200012","archive_page_no":226},{"inferred_address":"Coburg VIC 3058, Australia","geocode_latitude":-37.7412988,"geocode_longitude":144.9666108,"image_filename":"1973-0002-00012-00001-229.png","inferred_interview_date":"1942-07-28","archive_identifier":"UMA-ITE-1973000200012","archive_page_no":229},{"inferred_address":"398 Bell St, Pascoe Vale South VIC 3044, Australia","geocode_latitude":-37.739048,"geocode_longitude":144.945926,"image_filename":"1973-0002-00012-00001-232.png","inferred_interview_date":"1942-09-08","archive_identifier":"UMA-ITE-1973000200012","archive_page_no":232},{"inferred_address":"56 Carrington St, Pascoe Vale South VIC 3044, Australia","geocode_latitude":-37.7498184,"geocode_longitude":144.9456543,"image_filename":"1973-0002-00012-00001-241.png","inferred_interview_date":"1942-09-09","archive_identifier":"UMA-ITE-1973000200012","archive_page_no":241},{"inferred_address":"29 Disraeli St, Kew VIC 3101, Australia","geocode_latitude":-37.8022052,"geocode_longitude":145.0388248,"image_filename":"1973-0002-00012-00001-247.png","inferred_interview_date":"1942-09-09","archive_identifier":"UMA-ITE-1973000200012","archive_page_no":247},{"inferred_address":"Pascoe Vale VIC 3044, Australia","geocode_latitude":-37.7315238,"geocode_longitude":144.9384853,"image_filename":"1973-0002-00012-00001-250.png","inferred_interview_date":"1942-09-10","archive_identifier":"UMA-ITE-1973000200012","archive_page_no":250},{"inferred_address":"Pascoe Vale VIC 3044, Australia","geocode_latitude":-37.7315238,"geocode_longitude":144.9384853,"image_filename":"1973-0002-00012-00001-253.png","inferred_interview_date":null,"archive_identifier":"UMA-ITE-1973000200012","archive_page_no":253},{"inferred_address":"Pascoe Vale VIC 3044, Australia","geocode_latitude":-37.7315238,"geocode_longitude":144.9384853,"image_filename":"1973-0002-00012-00001-256.png","inferred_interview_date":"1942-09-10","archive_identifier":"UMA-ITE-1973000200012","archive_page_no":256},{"inferred_address":"7 Graham St, Pascoe Vale South VIC 3044, Australia","geocode_latitude":-37.7521082,"geocode_longitude":144.9433101,"image_filename":"1973-0002-00012-00001-259.png","inferred_interview_date":"1942-09-11","archive_identifier":"UMA-ITE-1973000200012","archive_page_no":259},{"inferred_address":"Pascoe Vale VIC 3044, Australia","geocode_latitude":-37.7315238,"geocode_longitude":144.9384853,"image_filename":"1973-0002-00012-00001-262.png","inferred_interview_date":"1942-09-08","archive_identifier":"UMA-ITE-1973000200012","archive_page_no":262},{"inferred_address":"Pascoe Vale VIC 3044, Australia","geocode_latitude":-37.7315238,"geocode_longitude":144.9384853,"image_filename":"1973-0002-00012-00001-271.png","inferred_interview_date":"1942-09-10","archive_identifier":"UMA-ITE-1973000200012","archive_page_no":271},{"inferred_address":"Pascoe Vale VIC 3044, Australia","geocode_latitude":-37.7315238,"geocode_longitude":144.9384853,"image_filename":"1973-0002-00012-00001-274.png","inferred_interview_date":"1942-09-09","archive_identifier":"UMA-ITE-1973000200012","archive_page_no":274},{"inferred_address":"Pascoe Vale VIC 3044, Australia","geocode_latitude":-37.7315238,"geocode_longitude":144.9384853,"image_filename":"1973-0002-00012-00001-277.png","inferred_interview_date":"1942-09-09","archive_identifier":"UMA-ITE-1973000200012","archive_page_no":277},{"inferred_address":"23 Sargood St, Coburg VIC 3058, Australia","geocode_latitude":-37.747543,"geocode_longitude":144.9636681,"image_filename":"1973-0002-00012-00001-28.png","inferred_interview_date":"1942-07-21","archive_identifier":"UMA-ITE-1973000200012","archive_page_no":28},{"inferred_address":"89 Melville Rd, Pascoe Vale South VIC 3044, Australia","geocode_latitude":-37.7485657,"geocode_longitude":144.9454607,"image_filename":"1973-0002-00012-00001-283.png","inferred_interview_date":"1942-09-09","archive_identifier":"UMA-ITE-1973000200012","archive_page_no":283},{"inferred_address":"Pascoe Vale VIC 3044, Australia","geocode_latitude":-37.7315238,"geocode_longitude":144.9384853,"image_filename":"1973-0002-00012-00001-286.png","inferred_interview_date":null,"archive_identifier":"UMA-ITE-1973000200012","archive_page_no":286},{"inferred_address":"Moreland Rd, Melbourne VIC, Australia","geocode_latitude":-37.7541026,"geocode_longitude":144.9527788,"image_filename":"1973-0002-00012-00001-289.png","inferred_interview_date":"1942-09-09","archive_identifier":"UMA-ITE-1973000200012","archive_page_no":289},{"inferred_address":"266 O'Hea St, Pascoe Vale South VIC 3044, Australia","geocode_latitude":-37.7351538,"geocode_longitude":144.9438262,"image_filename":"1973-0002-00012-00001-292.png","inferred_interview_date":null,"archive_identifier":"UMA-ITE-1973000200012","archive_page_no":292},{"inferred_address":"Pascoe Vale Rd, Pascoe Vale VIC 3044, Australia","geocode_latitude":-37.7252803,"geocode_longitude":144.9226903,"image_filename":"1973-0002-00012-00001-295.png","inferred_interview_date":"1942-09-10","archive_identifier":"UMA-ITE-1973000200012","archive_page_no":295},{"inferred_address":"Victoria, Australia","geocode_latitude":-36.9847807,"geocode_longitude":143.3906074,"image_filename":"1973-0002-00012-00001-30.png","inferred_interview_date":null,"archive_identifier":"UMA-ITE-1973000200012","archive_page_no":30},{"inferred_address":"3\/4 Reynard St, Coburg VIC 3058, Australia","geocode_latitude":-37.7483957,"geocode_longitude":144.9646469,"image_filename":"1973-0002-00012-00001-301.png","inferred_interview_date":"1942-09-09","archive_identifier":"UMA-ITE-1973000200012","archive_page_no":301},{"inferred_address":"Pascoe Vale VIC 3044, Australia","geocode_latitude":-37.7315238,"geocode_longitude":144.9384853,"image_filename":"1973-0002-00012-00001-307.png","inferred_interview_date":"1942-04-05","archive_identifier":"UMA-ITE-1973000200012","archive_page_no":307},{"inferred_address":"Victoria, Australia","geocode_latitude":-36.9847807,"geocode_longitude":143.3906074,"image_filename":"1973-0002-00012-00001-31.png","inferred_interview_date":"1942-08-18","archive_identifier":"UMA-ITE-1973000200012","archive_page_no":31},{"inferred_address":"Pascoe Vale VIC 3044, Australia","geocode_latitude":-37.7315238,"geocode_longitude":144.9384853,"image_filename":"1973-0002-00012-00001-310.png","inferred_interview_date":"1942-09-09","archive_identifier":"UMA-ITE-1973000200012","archive_page_no":310},{"inferred_address":"Pascoe Vale VIC 3044, Australia","geocode_latitude":-37.7315238,"geocode_longitude":144.9384853,"image_filename":"1973-0002-00012-00001-313.png","inferred_interview_date":"1942-09-07","archive_identifier":"UMA-ITE-1973000200012","archive_page_no":313},{"inferred_address":"6 Somali St, Pascoe Vale South VIC 3044, Australia","geocode_latitude":-37.7414474,"geocode_longitude":144.9388584,"image_filename":"1973-0002-00012-00001-316.png","inferred_interview_date":"1942-09-10","archive_identifier":"UMA-ITE-1973000200012","archive_page_no":316},{"inferred_address":"Pascoe Vale VIC 3044, Australia","geocode_latitude":-37.7315238,"geocode_longitude":144.9384853,"image_filename":"1973-0002-00012-00001-319.png","inferred_interview_date":"1942-09-08","archive_identifier":"UMA-ITE-1973000200012","archive_page_no":319},{"inferred_address":"Pascoe Vale VIC 3044, Australia","geocode_latitude":-37.7315238,"geocode_longitude":144.9384853,"image_filename":"1973-0002-00012-00001-322.png","inferred_interview_date":"1942-09-08","archive_identifier":"UMA-ITE-1973000200012","archive_page_no":322},{"inferred_address":"Pascoe Vale VIC 3044, Australia","geocode_latitude":-37.7315238,"geocode_longitude":144.9384853,"image_filename":"1973-0002-00012-00001-325.png","inferred_interview_date":"1942-07-09","archive_identifier":"UMA-ITE-1973000200012","archive_page_no":325},{"inferred_address":"5 Turner St, Pascoe Vale South VIC 3044, Australia","geocode_latitude":-37.7384119,"geocode_longitude":144.9450306,"image_filename":"1973-0002-00012-00001-328.png","inferred_interview_date":"1942-09-08","archive_identifier":"UMA-ITE-1973000200012","archive_page_no":328},{"inferred_address":"5 Wallace Cres, Strathmore VIC 3041, Australia","geocode_latitude":-37.7424794,"geocode_longitude":144.9293585,"image_filename":"1973-0002-00012-00001-331.png","inferred_interview_date":"1942-09-10","archive_identifier":"UMA-ITE-1973000200012","archive_page_no":331},{"inferred_address":"Pascoe Vale VIC 3044, Australia","geocode_latitude":-37.7315238,"geocode_longitude":144.9384853,"image_filename":"1973-0002-00012-00001-334.png","inferred_interview_date":"1942-09-10","archive_identifier":"UMA-ITE-1973000200012","archive_page_no":334},{"inferred_address":"Victoria, Australia","geocode_latitude":-36.9847807,"geocode_longitude":143.3906074,"image_filename":"1973-0002-00012-00001-336.png","inferred_interview_date":null,"archive_identifier":"UMA-ITE-1973000200012","archive_page_no":336},{"inferred_address":"13 Boronia St, Pascoe Vale VIC 3044, Australia","geocode_latitude":-37.7346821,"geocode_longitude":144.947977,"image_filename":"1973-0002-00012-00001-337.png","inferred_interview_date":"1942-09-11","archive_identifier":"UMA-ITE-1973000200012","archive_page_no":337},{"inferred_address":"Victoria, Australia","geocode_latitude":-36.9847807,"geocode_longitude":143.3906074,"image_filename":"1973-0002-00012-00001-339.png","inferred_interview_date":null,"archive_identifier":"UMA-ITE-1973000200012","archive_page_no":339},{"inferred_address":"68 Saunders St, Coburg VIC 3058, Australia","geocode_latitude":-37.7492814,"geocode_longitude":144.9514398,"image_filename":"1973-0002-00012-00001-34.png","inferred_interview_date":"1942-06-29","archive_identifier":"UMA-ITE-1973000200012","archive_page_no":34},{"inferred_address":"12 Erica St, Pascoe Vale VIC 3044, Australia","geocode_latitude":-37.7346347,"geocode_longitude":144.9475684,"image_filename":"1973-0002-00012-00001-340.png","inferred_interview_date":"1942-09-10","archive_identifier":"UMA-ITE-1973000200012","archive_page_no":340},{"inferred_address":"Victoria, Australia","geocode_latitude":-36.9847807,"geocode_longitude":143.3906074,"image_filename":"1973-0002-00012-00001-342.png","inferred_interview_date":null,"archive_identifier":"UMA-ITE-1973000200012","archive_page_no":342},{"inferred_address":"101 Gaffney St, Coburg VIC 3058, Australia","geocode_latitude":-37.7335574,"geocode_longitude":144.9589977,"image_filename":"1973-0002-00012-00001-343.png","inferred_interview_date":"1942-09-10","archive_identifier":"UMA-ITE-1973000200012","archive_page_no":343},{"inferred_address":"Victoria, Australia","geocode_latitude":-36.9847807,"geocode_longitude":143.3906074,"image_filename":"1973-0002-00012-00001-345.png","inferred_interview_date":null,"archive_identifier":"UMA-ITE-1973000200012","archive_page_no":345},{"inferred_address":"11 June St, Fawkner VIC 3060, Australia","geocode_latitude":-37.7006094,"geocode_longitude":144.9758767,"image_filename":"1973-0002-00012-00001-346.png","inferred_interview_date":"1942-09-10","archive_identifier":"UMA-ITE-1973000200012","archive_page_no":346},{"inferred_address":"Pascoe Vale VIC 3044, Australia","geocode_latitude":-37.7315238,"geocode_longitude":144.9384853,"image_filename":"1973-0002-00012-00001-349.png","inferred_interview_date":"0142-09-10","archive_identifier":"UMA-ITE-1973000200012","archive_page_no":349},{"inferred_address":"Victoria, Australia","geocode_latitude":-36.9847807,"geocode_longitude":143.3906074,"image_filename":"1973-0002-00012-00001-351.png","inferred_interview_date":null,"archive_identifier":"UMA-ITE-1973000200012","archive_page_no":351},{"inferred_address":"Pascoe Vale VIC 3044, Australia","geocode_latitude":-37.7315238,"geocode_longitude":144.9384853,"image_filename":"1973-0002-00012-00001-352.png","inferred_interview_date":"1942-09-09","archive_identifier":"UMA-ITE-1973000200012","archive_page_no":352},{"inferred_address":"33 Saunders St, Kyabram VIC 3620, Australia","geocode_latitude":-36.3170967,"geocode_longitude":145.0410477,"image_filename":"1973-0002-00012-00001-37.png","inferred_interview_date":"1942-06-29","archive_identifier":"UMA-ITE-1973000200012","archive_page_no":37},{"inferred_address":"1 Rolland St, Coburg VIC 3058, Australia","geocode_latitude":-37.7376204,"geocode_longitude":144.9605598,"image_filename":"1973-0002-00012-00001-4.png","inferred_interview_date":"1942-06-24","archive_identifier":"UMA-ITE-1973000200012","archive_page_no":4},{"inferred_address":"1 Service St, Coburg VIC 3058, Australia","geocode_latitude":-37.7403234,"geocode_longitude":144.9618504,"image_filename":"1973-0002-00012-00001-40.png","inferred_interview_date":"1942-06-24","archive_identifier":"UMA-ITE-1973000200012","archive_page_no":40},{"inferred_address":"22 Shackell St, Coburg VIC 3058, Australia","geocode_latitude":-37.7421662,"geocode_longitude":144.9522141,"image_filename":"1973-0002-00012-00001-44.png","inferred_interview_date":null,"archive_identifier":"UMA-ITE-1973000200012","archive_page_no":44},{"inferred_address":"Coburg VIC 3058, Australia","geocode_latitude":-37.7412988,"geocode_longitude":144.9666108,"image_filename":"1973-0002-00012-00001-47.png","inferred_interview_date":"1942-06-30","archive_identifier":"UMA-ITE-1973000200012","archive_page_no":47},{"inferred_address":"130 Shaftsbury St, Coburg VIC 3058, Australia","geocode_latitude":-37.744613,"geocode_longitude":144.9560857,"image_filename":"1973-0002-00012-00001-53.png","inferred_interview_date":"1942-07-18","archive_identifier":"UMA-ITE-1973000200012","archive_page_no":53},{"inferred_address":"61 Shaftsbury St, Coburg VIC 3058, Australia","geocode_latitude":-37.7495733,"geocode_longitude":144.9546661,"image_filename":"1973-0002-00012-00001-56.png","inferred_interview_date":"1942-06-30","archive_identifier":"UMA-ITE-1973000200012","archive_page_no":56},{"inferred_address":"44 Sheffield St, Coburg VIC 3058, Australia","geocode_latitude":-37.7469918,"geocode_longitude":144.9695517,"image_filename":"1973-0002-00012-00001-62.png","inferred_interview_date":"1942-07-03","archive_identifier":"UMA-ITE-1973000200012","archive_page_no":62},{"inferred_address":"Coburg VIC 3058, Australia","geocode_latitude":-37.7412988,"geocode_longitude":144.9666108,"image_filename":"1973-0002-00012-00001-65.png","inferred_interview_date":"1942-06-28","archive_identifier":"UMA-ITE-1973000200012","archive_page_no":65},{"inferred_address":"Coburg VIC 3058, Australia","geocode_latitude":-37.7412988,"geocode_longitude":144.9666108,"image_filename":"1973-0002-00012-00001-68.png","inferred_interview_date":"1942-06-25","archive_identifier":"UMA-ITE-1973000200012","archive_page_no":68},{"inferred_address":"Rose St, Coburg VIC 3058, Australia","geocode_latitude":-37.7430122,"geocode_longitude":144.9472194,"image_filename":"1973-0002-00012-00001-7.png","inferred_interview_date":null,"archive_identifier":"UMA-ITE-1973000200012","archive_page_no":7},{"inferred_address":"41 Stawell St, Coburg VIC 3058, Australia","geocode_latitude":-37.7344642,"geocode_longitude":144.9598714,"image_filename":"1973-0002-00012-00001-77.png","inferred_interview_date":null,"archive_identifier":"UMA-ITE-1973000200012","archive_page_no":77},{"inferred_address":"Strathearn Ave, Coburg VIC 3058, Australia","geocode_latitude":-37.7536916,"geocode_longitude":144.9566186,"image_filename":"1973-0002-00012-00001-80.png","inferred_interview_date":"1942-07-24","archive_identifier":"UMA-ITE-1973000200012","archive_page_no":80},{"inferred_address":"Coburg VIC 3058, Australia","geocode_latitude":-37.7412988,"geocode_longitude":144.9666108,"image_filename":"1973-0002-00012-00001-83.png","inferred_interview_date":"1942-06-25","archive_identifier":"UMA-ITE-1973000200012","archive_page_no":83},{"inferred_address":"64 Sussex St, Pascoe Vale VIC 3044, Australia","geocode_latitude":-37.7345686,"geocode_longitude":144.9496331,"image_filename":"1973-0002-00012-00001-86.png","inferred_interview_date":"1942-06-25","archive_identifier":"UMA-ITE-1973000200012","archive_page_no":86},{"inferred_address":"Coburg VIC 3058, Australia","geocode_latitude":-37.7412988,"geocode_longitude":144.9666108,"image_filename":"1973-0002-00012-00001-89.png","inferred_interview_date":null,"archive_identifier":"UMA-ITE-1973000200012","archive_page_no":89},{"inferred_address":"36 Sydney Rd, Coburg VIC 3058, Australia","geocode_latitude":-37.7543859,"geocode_longitude":144.9646469,"image_filename":"1973-0002-00012-00001-92.png","inferred_interview_date":"1942-06-22","archive_identifier":"UMA-ITE-1973000200012","archive_page_no":92},{"inferred_address":"122 Sydney Rd, Coburg VIC 3058, Australia","geocode_latitude":-37.7519807,"geocode_longitude":144.9649588,"image_filename":"1973-0002-00012-00001-95.png","inferred_interview_date":"1942-06-24","archive_identifier":"UMA-ITE-1973000200012","archive_page_no":95},{"inferred_address":"Coburg VIC 3058, Australia","geocode_latitude":-37.7412988,"geocode_longitude":144.9666108,"image_filename":"1973-0002-00012-00001-98.png","inferred_interview_date":null,"archive_identifier":"UMA-ITE-1973000200012","archive_page_no":98}]